{
   "counties": [
      {
         "name": "Bertie",
         "city": "Windsor",
         "lat": 35.9985,
         "lon": -76.9461,
         "url": "counties/bertie/index.html"
      },
      {
         "name": "Pitt",
         "city": "Greenville",
         "lat": 35.6115,
         "lon": -77.3752,
         "url": "counties/pitt/index.html",
         "station_id": "KPGV"
      },
      {
         "name": "Beaufort",
         "city": "Washington",
         "lat": 35.57056,
         "lon": -77.04972,
         "url": "counties/beaufort/index.html",
         "station_id": "KOCW"
      },
      {
         "name": "Martin",
         "city": "Williamston",
         "lat": 35.8557,
         "lon": -77.056,
         "url": "counties/martin/index.html",
         "station_id": "KMCZ"
      },
      {
         "name": "Dare",
         "city": "Manteo",
         "lat": 35.91667,
         "lon": -75.7,
         "url": "counties/dare/index.html",
         "station_id": "KMQI"
      },
      {
         "name": "Washington",
         "city": "Plymouth",
         "lat": 35.8668,
         "lon": -76.7488,
         "url": "counties/washington/index.html"
      },
      {
         "name": "Tyrrell",
         "city": "Columbia",
         "lat": 35.9177,
         "lon": -76.2522,
         "url": "counties/tyrrell/index.html"
      },
      {
         "name": "Hyde",
         "city": "Swan Quarter",
         "lat": 35.4085,
         "lon": -76.3302,
         "url": "counties/hyde/index.html"
      }
   ]
}